City_ID,City,Lat,Lng,Max Temp,Humidity,Cloudiness,Wind Speed,Country,Date
0,codrington,-38.2667,141.9667,16.14,59,44,3.53,AU,1713667057
1,fortuna,40.5982,-124.1573,13.85,91,100,6.17,US,1713667057
2,king,47.4665,-121.8179,5.78,91,100,0.89,US,1713667057
3,grytviken,-54.2811,-36.5092,5.05,92,100,5.04,GS,1713667023
4,horsham,51.064,-0.3272,7.14,76,75,2.57,GB,1713667058
5,drabiv,49.963,32.1529,9.58,85,100,7.09,UA,1713667058
6,adamstown,-25.066,-130.1015,22.73,77,1,12.2,PN,1713667059
7,san patricio,28.017,-97.5169,25.92,75,100,2.35,US,1713667059
8,port elizabeth,-33.918,25.5701,19.62,95,100,3.6,ZA,1713667059
9,ribeira grande,38.5167,-28.7,16.54,94,20,1.34,PT,1713667059
10,klyuchi,52.2667,79.1667,10.73,38,7,2.49,RU,1713667060
11,bilibino,68.0546,166.4372,-8.81,77,70,0.81,RU,1713667060
12,sao miguel do araguaia,-13.275,-50.1628,23.86,88,72,1.29,BR,1713667060
13,port mathurin,-19.6833,63.4167,26.58,80,43,7.9,MU,1713667060
14,tame,6.461,-71.73,24.83,73,99,1.94,CO,1713667061
15,bredasdorp,-34.5322,20.0403,16.54,92,100,3.03,ZA,1713667061
16,blackmans bay,-43.0167,147.3167,18.18,55,1,0.89,AU,1713667061
17,isafjordur,66.0755,-23.124,2.45,89,90,9.06,IS,1713667062
18,utrik,11.2278,169.8474,27.33,82,100,7.84,MH,1713667062
19,abengourou,6.7297,-3.4964,23.67,98,66,1.69,CI,1713667062
20,kone,-21.0595,164.8658,28.96,70,90,2.34,NC,1713667063
21,olonkinbyen,70.9221,-8.7187,2.15,98,100,11.94,SJ,1713667063
22,cill airne,52.05,-9.5167,7.1,94,20,1.03,IE,1713667063
23,stanley,54.868,-1.6985,5.16,85,75,1.54,GB,1713667063
24,swakopmund,-22.6833,14.5333,11.47,75,8,1.83,NA,1713667063
25,goz beida,13.95,20.55,28.05,15,61,2.03,TD,1713667064
26,vadso,70.0744,29.7487,-3.51,74,100,6.17,NO,1713667064
27,helena valley west central,46.6629,-112.0604,10.49,30,0,5.66,US,1713667064
28,puerto ayora,-0.7393,-90.3518,24.75,99,57,1.68,EC,1713667065
29,ilulissat,69.2167,-51.1,-4.99,54,100,2.57,GL,1713667065
30,pisco,-13.7,-76.2167,21.03,83,0,2.57,PE,1713667065
31,enewetak,11.3474,162.3373,27.87,75,72,6.79,MH,1713667065
32,bikenibeu village,1.3673,173.1241,30.98,74,40,3.09,KI,1713667066
33,waitangi,-43.9535,-176.5597,14.9,92,100,1.34,NZ,1713667066
34,polyarnyy,69.1989,33.4478,-5.77,71,100,6.08,RU,1713667066
35,invercargill,-46.4,168.35,13.34,81,89,4.02,NZ,1713667066
36,bethel,41.3712,-73.414,9.41,58,0,4.12,US,1713667067
37,smithville,39.3869,-94.5811,9.88,57,100,1.54,US,1713667067
38,sandnessjoen,66.0217,12.6316,-4.71,73,7,2.45,NO,1713667067
39,waingapu,-9.6567,120.2641,28.22,83,86,6.28,ID,1713667067
40,upington,-28.4478,21.2561,21.21,30,0,3.6,ZA,1713666914
41,praia da vitoria,38.7333,-27.0667,18.14,88,20,5.45,PT,1713666953
42,belyy yar,53.6039,91.3903,5.94,45,0,1.0,RU,1713667068
43,mazagao,-0.115,-51.2894,26.03,98,100,1.34,BR,1713667068
44,bandon,51.7469,-8.7425,6.77,92,58,0.46,IE,1713667069
45,rio preto da eva,-2.6994,-59.6997,24.17,98,100,0.31,BR,1713667069
46,port-aux-francais,-49.35,70.2167,8.57,96,99,17.1,TF,1713667069
47,hotan,37.0997,79.9269,20.01,21,67,1.22,CN,1713667066
48,iqaluit,63.7506,-68.5145,-7.15,62,100,7.72,CA,1713666794
49,tosontsengel,48.7567,98.2839,-0.08,60,69,6.21,MN,1713667070
50,margaret river,-33.95,115.0667,23.03,41,10,2.74,AU,1713666891
51,nago,26.5881,127.9761,29.24,76,22,5.4,JP,1713666818
52,rongelap,11.1635,166.8941,27.82,75,70,7.65,MH,1713667070
53,albany,42.6001,-73.9662,5.32,59,0,0.45,US,1713667071
54,hakha,22.65,93.6167,25.42,36,12,2.01,MM,1713667071
55,merizo village,13.2658,144.6691,33.31,78,98,7.19,GU,1713667071
56,fort bragg,35.139,-79.006,21.91,83,100,1.54,US,1713667071
57,wailua homesteads,22.0669,-159.378,27.24,75,0,6.69,US,1713667072
58,keelakarai,9.2333,78.7833,31.27,67,99,2.22,IN,1713667072
59,chonchi,-42.6128,-73.8092,7.84,96,12,1.15,CL,1713667072
60,bredy,52.4153,60.3411,18.52,54,3,1.75,RU,1713667072
61,lagoa,39.05,-27.9833,16.19,88,8,5.94,PT,1713667072
62,kharp,66.8014,65.8081,-14.6,94,100,2.78,RU,1713667073
63,nadym,65.5333,72.5167,-10.02,95,100,5.45,RU,1713667073
64,port douglas,-16.4833,145.4667,25.51,85,96,5.17,AU,1713667074
65,albisola superiore,44.3389,8.5105,11.92,68,4,3.24,IT,1713667074
66,cabo san lucas,22.8909,-109.9124,29.17,26,0,3.09,MX,1713666949
67,papatowai,-46.5619,169.4708,12.58,78,87,4.3,NZ,1713667074
68,mata-utu,-13.2816,-176.1745,29.12,77,19,7.0,WF,1713667074
69,atafu village,-8.5421,-172.5159,29.81,74,14,5.45,TK,1713667075
70,margate,51.3813,1.3862,5.94,73,26,4.02,GB,1713667075
71,franklin,39.9667,-83.0166,9.02,53,75,4.63,US,1713667075
72,santa elena de uairen,4.6167,-61.1333,21.66,84,91,1.4,VE,1713667076
73,kangding,30.0513,101.9603,10.06,90,98,1.16,CN,1713667076
74,katsuura,35.1333,140.3,20.27,70,100,2.03,JP,1713667076
75,tot'ma,59.9747,42.7642,2.86,92,97,1.81,RU,1713667076
76,newport,51.5877,-2.9984,7.51,83,14,4.34,GB,1713667076
77,ilha de mocambique,-15.0342,40.7358,25.8,72,61,6.66,MZ,1713667077
78,basco,20.4487,121.9702,27.95,84,0,8.06,PH,1713667077
79,hithadhoo,-0.6,73.0833,29.19,73,18,3.97,MV,1713667077
80,kavieng,-2.5744,150.7967,29.91,64,58,3.09,PG,1713667077
81,afif,23.9065,42.9172,19.99,19,0,4.89,SA,1713667078
82,qaqortoq,60.7167,-46.0333,-2.33,84,100,3.01,GL,1713667078
83,port lincoln,-34.7333,135.8667,17.14,63,7,2.65,AU,1713667078
84,ishigaki,24.3448,124.1572,30.07,79,40,7.72,JP,1713666791
85,west island,-12.1568,96.8225,28.99,79,75,6.69,CC,1713667078
86,ulladulla,-35.35,150.4667,22.09,57,27,2.94,AU,1713666847
87,edinburgh of the seven seas,-37.0676,-12.3116,14.07,61,100,1.61,SH,1713667079
88,dudinka,69.4058,86.1778,-16.6,93,91,1.45,RU,1713667079
89,nantong,32.0303,120.8747,16.25,76,100,2.84,CN,1713667079
90,yellowknife,62.456,-114.3525,4.29,60,20,2.57,CA,1713667079
91,vung tau,10.346,107.0843,29.96,64,35,4.32,VN,1713667080
92,haiku-pauwela,20.9219,-156.3051,25.12,69,40,8.75,US,1713667080
93,urmary,55.6789,47.944,7.36,70,19,4.66,RU,1713667080
94,petropavlovsk-kamchatsky,53.0452,158.6483,1.36,95,75,4.0,RU,1713667080
95,port saint john's,-31.6229,29.5448,21.01,86,81,2.44,ZA,1713667081
96,seorinarayan,21.7333,82.5833,37.66,18,29,2.67,IN,1713667081
97,port augusta,-32.5,137.7667,23.23,26,0,2.99,AU,1713666892
98,puerto natales,-51.7236,-72.4875,2.11,89,31,2.57,CL,1713667081
99,tiksi,71.6872,128.8694,-0.33,83,41,0.77,RU,1713667082
100,pacific grove,36.6177,-121.9166,17.44,64,0,3.09,US,1713667082
101,lospalos,-8.5186,127.0025,27.7,66,67,4.55,TL,1713667082
102,vilyuchinsk,52.9306,158.4028,2.18,85,100,3.35,RU,1713667083
103,smara,26.7384,-11.6719,15.35,81,0,5.52,EH,1713667083
104,talnakh,69.4865,88.3972,-15.28,94,90,2.38,RU,1713667083
105,sao joao da barra,-21.6403,-41.0511,22.41,71,46,2.31,BR,1713667083
106,avarua,-21.2078,-159.775,26.03,83,75,3.6,CK,1713667084
107,zhumysker,49.3333,49.4,18.47,53,1,4.83,KZ,1713667084
108,outjo,-20.1167,16.15,18.87,36,5,3.65,NA,1713667084
109,lorengau,-2.0226,147.2712,29.93,64,53,3.67,PG,1713667084
110,mendefera,14.8872,38.8153,16.59,61,91,2.27,ER,1713667085
111,beau vallon,-20.4189,57.6953,25.13,94,75,3.6,MU,1713667085
112,tiflet,33.8947,-6.3065,11.33,90,51,1.14,MA,1713667086
113,panciu,45.9,27.0833,6.1,73,100,2.36,RO,1713667086
114,weno,7.4515,151.8468,29.97,84,100,2.57,FM,1713667087
115,ewo,-0.8725,14.8206,25.07,74,100,1.28,CG,1713667087
116,chabahar,25.2919,60.643,25.51,63,0,2.34,IR,1713667087
117,sitka,57.0531,-135.33,13.94,41,40,2.57,US,1713667088
118,fada,9.5667,8.3,25.68,52,47,2.17,NG,1713667088
119,mirny,62.5353,113.9611,-0.43,99,100,4.02,RU,1713667088
120,apatity,67.5641,33.4031,-7.41,62,98,2.14,RU,1713667089
121,aasiaat,68.7098,-52.8699,-9.33,88,100,6.17,GL,1713667089
122,new norfolk,-42.7826,147.0587,18.84,48,0,2.0,AU,1713667089
123,suva,-18.1416,178.4415,30.71,62,75,4.63,FJ,1713667090
124,kapuskasing,49.4169,-82.4331,2.05,55,75,3.09,CA,1713667090
125,dunedin,-45.8742,170.5036,15.45,71,47,0.45,NZ,1713666860
126,gornopravdinsk,60.05,69.9,4.37,98,100,2.17,RU,1713667090
127,samalut,28.3121,30.7101,17.74,63,33,6.61,EG,1713667091
128,borujerd,33.8973,48.7516,13.45,60,60,1.0,IR,1713667091
129,westport,41.1415,-73.3579,11.05,56,0,8.75,US,1713667091
130,longyearbyen,78.2186,15.6401,-3.09,63,75,4.63,SJ,1713667092
131,wainwright,52.839,-110.8572,4.57,43,0,3.82,CA,1713667093
132,necochea,-38.5473,-58.7368,15.06,68,100,2.93,AR,1713667093
133,thompson,55.7435,-97.8558,-2.91,43,75,1.54,CA,1713667093
134,woodland,38.6785,-121.7733,26.99,48,0,5.66,US,1713667093
135,saint-pierre,-21.3393,55.4781,22.88,73,100,1.3,RE,1713666979
136,borazjan,29.2666,51.2159,25.93,29,0,0.36,IR,1713667094
137,georgetown,5.4112,100.3354,31.96,74,20,1.54,MY,1713667094
138,kapa'a,22.0752,-159.319,27.99,75,0,6.69,US,1713667095
139,whitehorse,60.7161,-135.0538,15.43,13,0,4.63,CA,1713667095
140,soata,6.3337,-72.6828,16.71,91,80,0.82,CO,1713667095
141,nova vicosa,-17.8919,-39.3719,25.06,81,87,6.95,BR,1713667096
142,nema,57.5067,50.5011,6.83,69,25,1.77,RU,1713667096
143,at taj,24.2049,23.2857,19.99,28,0,5.45,LY,1713667096
144,eggesin,53.6833,14.0833,-0.88,76,6,1.74,DE,1713667097
145,tura,25.5198,90.2201,32.88,43,23,3.7,IN,1713667097
146,uruguaiana,-29.7547,-57.0883,17.58,85,1,3.63,BR,1713666892
147,senador jose porfirio,-2.5908,-51.9542,24.26,98,100,0.77,BR,1713667097
148,hamilton,39.1834,-84.5333,8.81,55,0,5.66,US,1713667098
149,port alfred,-33.5906,26.891,19.54,98,100,1.34,ZA,1713667098
150,tofol,5.3248,163.0078,30.88,70,75,4.12,FM,1713667098
151,knyaze-volkonskoye,48.4642,135.4567,9.19,67,94,4.47,RU,1713667099
152,bukama,-9.2,25.85,20.26,93,88,0.58,CD,1713667099
153,port blair,11.6667,92.75,31.02,70,20,1.54,IN,1713666513
154,hadibu,12.65,54.0333,27.64,73,46,1.57,YE,1713667099
155,kingston,17.997,-76.7936,27.53,77,20,3.6,JM,1713667099
156,la ronge,55.1001,-105.2842,10.14,22,20,2.06,CA,1713667092
157,dryden,49.7833,-92.7503,4.16,52,100,2.57,CA,1713667100
158,lompoc,34.6391,-120.4579,16.63,84,0,9.39,US,1713667026
159,cajati,-24.7361,-48.1228,17.75,98,45,0.72,BR,1713666894
160,punta arenas,-53.15,-70.9167,4.06,65,40,5.66,CL,1713667100
161,kodiak,57.79,-152.4072,3.73,93,100,2.06,US,1713667101
162,pordic,48.5705,-2.8178,5.19,87,0,1.54,FR,1713667052
163,ancud,-41.8697,-73.8203,7.45,85,35,2.81,CL,1713667101
164,juneau,58.3019,-134.4197,16.0,72,20,4.12,US,1713667101
165,debila,33.5167,6.95,16.04,59,0,4.12,DZ,1713667102
166,sao jose do rio pardo,-21.5956,-46.8886,18.08,81,0,1.81,BR,1713667102
167,kaduna,10.5222,7.4383,30.23,37,91,2.36,NG,1713667102
168,honda,5.2086,-74.7358,24.33,89,90,0.9,CO,1713667103
169,asau,46.4333,26.4,6.71,76,100,1.78,RO,1713667103
170,vorgashor,67.5833,63.95,-11.78,96,100,3.98,RU,1713667103
171,hermanus,-34.4187,19.2345,18.22,91,100,3.86,ZA,1713667104
172,zhanaozen,43.3,52.8,20.94,36,3,3.87,KZ,1713667104
173,misliyah,17.4599,42.5572,28.79,74,8,1.5,SA,1713667105
174,novodvinsk,64.4165,40.8122,-4.14,94,27,2.8,RU,1713667105
175,buala,-8.145,159.5921,29.67,73,80,1.16,SB,1713667105
176,tezpur,26.6333,92.8,30.24,50,3,4.51,IN,1713667106
177,upata,8.0086,-62.3989,23.44,90,21,2.32,VE,1713667106
178,ola,59.5833,151.2833,0.63,62,9,0.31,RU,1713667106
179,negotin,44.2264,22.5308,7.52,79,74,1.19,RS,1713667106
180,taksimo,56.3444,114.8794,5.16,74,100,0.08,RU,1713667106
181,udachny,66.4167,112.4,-1.42,95,100,3.73,RU,1713667107
182,toliara,-23.35,43.6667,20.47,91,1,3.13,MG,1713666942
183,keningau,5.3378,116.1602,32.84,54,98,1.04,MY,1713667107
184,college,64.8569,-147.8028,17.18,22,0,3.09,US,1713667107
185,sarangani,5.4033,125.4636,28.32,79,53,8.9,PH,1713667108
186,kutum,14.2,24.6667,25.24,14,100,1.14,SD,1713667108
187,reggane,26.7158,0.1714,27.85,10,100,3.64,DZ,1713667108
188,constantia,44.1833,28.65,7.38,73,100,9.72,RO,1713667108
189,dolinsk,47.35,142.8,2.07,98,100,4.04,RU,1713667109
190,vila franca do campo,37.7167,-25.4333,18.27,99,100,1.73,PT,1713667109
191,fale old settlement,-9.3852,-171.2468,29.73,74,61,5.73,TK,1713667109
192,antsiranana,-12.2787,49.2917,24.98,85,76,4.46,MG,1713667109
193,koya,34.2129,135.6224,12.55,89,100,1.67,JP,1713667024
194,jianshui,23.6363,102.8264,27.43,37,32,3.84,CN,1713667110
195,midoun,33.8081,10.9923,15.92,64,100,6.73,TN,1713667110
196,akureyri,65.6835,-18.0878,8.96,66,0,12.86,IS,1713667000
197,zaragoza,41.6561,-0.8773,11.56,61,0,5.14,ES,1713666820
198,vilyuysk,63.7553,121.6247,0.56,100,100,3.58,RU,1713667111
199,mishkino,55.3389,63.9175,18.13,65,31,2.98,RU,1713667111
200,chardara,41.2547,67.9692,20.75,54,86,2.17,KZ,1713667112
201,geraldton,-28.7667,114.6,29.23,17,4,7.72,AU,1713667025
202,howrah,22.5892,88.3103,33.0,75,20,3.09,IN,1713667112
203,boa vista,2.8197,-60.6733,26.99,83,40,3.09,BR,1713667113
204,walvis bay,-22.9575,14.5053,11.53,100,62,0.51,NA,1713667113
205,wasagu,11.3764,5.7954,31.28,34,97,3.54,NG,1713667113
206,arteche,12.2645,125.4048,29.71,73,55,4.4,PH,1713667113
207,kharabali,47.4196,47.2568,19.49,43,45,6.71,RU,1713667114
208,crane,31.3974,-102.3501,11.28,87,100,8.04,US,1713667114
209,namibe,-15.1961,12.1522,26.24,67,62,2.78,AO,1713667114
210,keflavik,64.0049,-22.5624,5.24,81,100,11.32,IS,1713667114
211,qacha's nek,-30.1154,28.6894,13.12,51,100,2.8,LS,1713667114
212,bowling green,36.9903,-86.4436,10.41,72,100,2.73,US,1713667115
213,ketchikan,55.3422,-131.6461,15.26,25,0,2.57,US,1713667115
214,the pas,53.8251,-101.2541,3.01,65,75,1.03,CA,1713667115
215,sosnovo,60.5514,30.2144,-6.49,98,23,0.2,RU,1713667116
216,corvallis,44.5646,-123.262,12.95,61,20,3.09,US,1713667116
217,iron river,46.0927,-88.6423,-0.58,60,79,3.25,US,1713667116
218,arraial do cabo,-22.9661,-42.0278,22.97,69,0,3.59,BR,1713667117
219,chandur,19.7333,79.1833,36.19,25,85,2.32,IN,1713667117
220,dalbandin,28.8947,64.4101,22.45,24,0,1.09,PK,1713667118
221,orangeburg,33.4918,-80.8557,25.16,79,40,1.54,US,1713667118
222,verkhovazh'ye,60.7472,42.0465,1.75,94,78,2.6,RU,1713667119
223,morondava,-20.2833,44.2833,21.88,85,1,2.56,MG,1713667119
224,susuman,62.7833,148.1667,-6.12,77,54,1.34,RU,1713667120
225,kailua-kona,19.6406,-155.9956,27.98,76,0,4.63,US,1713667120
226,trujillo,-8.116,-79.03,19.98,83,42,4.12,PE,1713667120
227,kandy,7.2955,80.6356,27.15,72,78,0.84,LK,1713666931
228,queenstown,-31.8976,26.8753,14.47,81,43,0.52,ZA,1713667121
229,tazacorte,28.629,-17.9293,19.54,78,40,3.13,ES,1713667121
230,wokha,26.1,94.2667,21.47,59,3,0.99,IN,1713667121
231,port hedland,-20.3167,118.5667,31.03,12,0,8.75,AU,1713666836
232,perryton,36.4,-100.8027,6.87,66,100,4.52,US,1713667122
233,badiyah,22.45,58.8,24.38,75,0,2.05,OM,1713667122
234,flying fish cove,-10.4217,105.6791,23.82,100,100,4.12,CX,1713667123
235,charleston,32.7766,-79.9309,25.1,75,0,5.14,US,1713667123
236,maintirano,-18.0667,44.0167,25.12,82,95,3.72,MG,1713667123
237,tralee,52.2704,-9.7026,7.1,93,14,1.49,IE,1713667124
238,nadi,-17.8,177.4167,30.0,70,75,5.66,FJ,1713667124
239,bokakhat,26.6333,93.6,29.16,57,20,2.61,IN,1713667124
240,lihue,21.9789,-159.3672,27.58,68,0,6.69,US,1713667124
241,chernyshevskiy,63.0128,112.4714,0.04,100,100,2.04,RU,1713667125
242,baicheng,45.6167,122.8167,21.09,28,14,8.78,CN,1713667125
243,vanimo,-2.6741,141.3028,30.23,71,28,3.4,PG,1713667125
244,jamestown,42.097,-79.2353,5.77,69,75,4.12,US,1713667008
245,baruun-urt,46.6806,113.2792,18.23,24,77,11.88,MN,1713667126
246,turriff,57.5384,-2.4593,5.73,94,100,2.27,GB,1713667126
247,st. john's,47.5649,-52.7093,-0.02,89,75,4.63,CA,1713667126
248,tarija,-21.5355,-64.7296,18.91,81,94,0.55,BO,1713667127
249,badger,64.8,-147.5333,17.14,22,0,3.09,US,1713667127
250,extrema,-22.8547,-46.3183,15.3,96,11,1.52,BR,1713667127
251,minas de marcona,-15.2119,-75.1103,16.4,82,47,2.93,PE,1713667127
252,alaghsas,17.0187,8.0168,28.77,10,26,5.33,NE,1713667128
253,pasighat,28.0667,95.3333,24.59,72,100,1.33,IN,1713667128
254,az zubayr,30.3945,47.7011,26.12,44,21,5.56,IQ,1713667128
255,la passe,45.5549,-0.8967,6.13,84,0,5.57,FR,1713667128
256,greymouth,-42.4667,171.2,14.28,66,4,1.91,NZ,1713667128
257,smithers,54.7804,-127.1743,14.18,21,75,3.09,CA,1713667129
258,petauke,-14.2426,31.3253,15.86,87,0,2.09,ZM,1713667129
259,lakatoro,-16.0999,167.4164,27.76,84,99,3.66,VU,1713667129
260,ghadamis,30.1337,9.5007,26.38,17,33,9.96,LY,1713667129
261,benjamin constant,-4.3831,-70.0311,25.07,99,100,0.39,BR,1713667130
262,tarko-sale,64.9225,77.785,-10.32,78,99,3.31,RU,1713667130
263,mesolongi,38.3702,21.4295,11.62,70,56,2.77,GR,1713667130
264,ouadda,8.0777,22.4007,20.96,87,100,2.01,CF,1713667131
265,daru,-9.0763,143.2092,29.32,74,84,2.48,PG,1713667131
266,hammerfest,70.6634,23.6821,-4.75,63,3,3.6,NO,1713667131
267,hawaiian paradise park,19.5933,-154.9731,22.73,89,100,1.54,US,1713667132
268,khandyga,62.6667,135.6,5.15,67,100,0.94,RU,1713667132
269,tabou,4.423,-7.3528,27.35,84,88,2.79,CI,1713667132
270,isiolo,0.3546,37.5822,20.86,79,91,2.4,KE,1713667133
271,fisterra,42.9049,-9.2629,13.19,73,0,4.29,ES,1713667133
272,alto araguaia,-17.3147,-53.2153,24.7,70,100,2.07,BR,1713667133
273,tarfaya,27.9358,-12.9218,18.27,75,5,7.89,MA,1713667134
274,illizi,26.4833,8.4667,22.89,8,48,3.37,DZ,1713667134
275,monywa,22.1167,95.1333,34.9,30,51,2.97,MM,1713667135
276,tibati,6.4667,12.6333,21.39,90,100,0.67,CM,1713667135
277,shenjiamen,29.9576,122.298,15.28,87,92,4.46,CN,1713667135
278,saipan,15.1355,145.701,31.39,62,20,7.2,MP,1713667083
279,novomykolayivka,47.9781,35.9102,12.99,82,100,3.95,UA,1713667136
280,gaiman,-43.2897,-65.4929,9.43,57,8,1.89,AR,1713667136
281,sredneuralsk,56.9892,60.4666,14.64,74,100,3.82,RU,1713667136
282,warman,52.3168,-106.5679,4.95,52,20,4.12,CA,1713667137
283,jiuquan,39.7432,98.5174,18.96,16,0,5.55,CN,1713667137
284,cova figueira,14.8905,-24.2934,20.26,76,99,5.15,CV,1713667137
285,alofi,-19.0595,-169.9187,27.94,69,75,6.69,NU,1713667137
286,ekibastuz,51.6667,75.3667,14.67,41,0,2.55,KZ,1713667138
287,as sulayyil,20.4607,45.5779,27.14,35,4,4.11,SA,1713667138
288,isola di capo rizzuto,38.96,17.0933,12.88,72,9,6.97,IT,1713667138
289,krasnomayskiy,57.6194,34.4099,3.21,88,100,2.17,RU,1713667138
290,gulf shores,30.246,-87.7008,24.47,77,40,2.57,US,1713667139
291,san luis de la loma,17.2706,-100.8939,24.88,65,0,3.04,MX,1713667139
292,suntar,62.1444,117.6319,1.33,100,100,2.95,RU,1713667139
293,paros,37.0833,25.15,16.84,82,26,3.09,GR,1713667139
294,pico truncado,-46.7949,-67.9573,3.84,53,24,2.34,AR,1713666970
295,dolores,-36.3132,-57.6792,17.93,84,99,1.5,AR,1713667140
296,chui,-33.6971,-53.4616,16.3,87,83,2.76,UY,1713667140
297,uzhur,55.3036,89.8339,0.26,50,100,4.02,RU,1713667140
298,kavaratti,10.5669,72.642,29.69,75,100,3.49,IN,1713667141
299,afaahiti,-17.75,-149.2833,28.93,80,45,6.22,PF,1713667141
300,east hartford,41.7823,-72.612,9.05,58,0,6.17,US,1713667141
301,barra de santo antonio,-9.4047,-35.5072,26.6,85,100,2.16,BR,1713667142
302,chadron,42.8294,-102.9999,5.82,53,75,3.09,US,1713667142
303,hasaki,35.7333,140.8333,22.38,71,94,4.47,JP,1713667103
304,la'ie,21.6477,-157.9253,27.98,67,40,3.13,US,1713667142
305,tsiombe,-25.3,45.4833,20.91,89,89,1.02,MG,1713667143
306,egilsstadir,65.2653,-14.3948,8.95,66,0,11.32,IS,1713667143
307,touros,-5.1989,-35.4608,24.88,91,100,3.06,BR,1713667143
308,vetluga,57.8557,45.781,5.27,75,46,1.42,RU,1713667143
309,san andres,12.5847,-81.7006,28.01,78,20,2.06,CO,1713667144
310,bridgewater,44.3835,-64.5155,5.82,95,100,1.54,CA,1713667144
311,neyshabur,36.2133,58.7958,18.1,29,12,1.85,IR,1713667144
312,lebu,-37.6167,-73.65,10.67,80,65,6.33,CL,1713667144
313,marmande,44.5,0.1667,5.28,79,0,3.21,FR,1713667098
314,pudozh,61.8099,36.5345,-7.81,98,53,0.89,RU,1713667145
315,santiago de cao,-7.9589,-79.2392,20.07,83,28,4.12,PE,1713667145
316,mugia,43.1041,-9.2179,13.28,76,0,6.14,ES,1713667145
317,yuzhno-kurilsk,44.0306,145.8556,2.43,97,100,8.23,RU,1713667146
318,crucecita,-28.95,-58.9833,18.94,90,0,2.93,AR,1713667146
319,aykhal,66.0,111.5,-0.8,99,100,2.51,RU,1713667146
320,castillos,-34.1667,-53.8333,15.93,88,97,2.25,UY,1713667146
321,vermillion,42.7794,-96.9292,6.0,62,18,2.84,US,1713667146
322,thomaston,32.8882,-84.3266,20.17,82,40,1.54,US,1713667147
323,nova sintra,14.8667,-24.7167,20.01,78,71,8.26,CV,1713667147
324,candido mendes,-1.4467,-45.7167,24.49,97,100,0.76,BR,1713667148
325,amga,60.8953,131.9608,2.91,77,100,4.89,RU,1713667148
326,shuya,56.8487,41.3883,4.01,77,91,2.31,RU,1713667148
327,aitape,-3.1374,142.3475,30.25,70,50,3.35,PG,1713667148
328,l'govskiy,51.6307,35.2775,9.62,73,100,9.96,RU,1713667149
329,le vauclin,14.5452,-60.8388,26.03,89,20,1.54,MQ,1713667149
330,saint-memmie,48.9525,4.3841,5.01,86,100,4.47,FR,1713667149
331,luanda,-8.8368,13.2343,27.0,87,20,1.03,AO,1713666905
332,tshabong,-26.05,22.45,21.35,33,9,4.24,BW,1713667149
333,independencia,-5.3964,-40.3086,22.27,98,100,2.79,BR,1713667150
334,milford haven,51.7128,-5.0341,4.81,84,9,3.35,GB,1713667150
335,turaif,31.6725,38.6637,17.14,42,0,7.2,SA,1713667150
336,biloela,-24.4167,150.5,22.38,61,85,6.37,AU,1713667151
337,storozhevaya,43.8789,41.4514,13.28,48,89,2.07,RU,1713667151
338,nola,40.922,14.5329,11.33,94,96,2.5,IT,1713667151
339,okhotsk,59.3833,143.3,1.68,72,100,1.47,RU,1713667152
340,ushuaia,-54.8,-68.3,3.81,75,40,10.8,AR,1713667152
341,harper,4.375,-7.7169,27.66,83,70,2.78,LR,1713667152
342,mcminnville,45.2101,-123.1987,13.14,73,10,2.94,US,1713667152
343,severnoye,56.3491,78.3619,4.43,87,86,1.79,RU,1713667153
344,mil'kovo,55.6078,37.7956,7.27,71,100,3.92,RU,1713667153
345,chiang mai,18.75,99.0,35.59,44,0,2.34,TH,1713667135
346,baise city,23.8997,106.6133,27.41,99,91,1.28,CN,1713667153
347,pechora,65.1472,57.2244,1.03,98,100,4.92,RU,1713667154
348,biltine,14.5333,20.9167,29.84,13,54,1.77,TD,1713667154
349,conception bay south,47.4999,-52.9981,-0.15,90,100,3.94,CA,1713667154
350,al bardiyah,31.7561,25.0865,14.66,76,9,1.43,LY,1713667155
351,glace bay,46.1969,-59.957,4.32,97,100,5.66,CA,1713667155
352,es senia,35.6478,-0.624,15.99,72,75,3.09,DZ,1713667155
353,nar'yan-mar,67.6713,53.087,-9.94,93,100,9.39,RU,1713667114
354,martapura,-3.4167,114.85,31.05,74,40,3.09,ID,1713667156
355,alice springs,-23.7,133.8833,20.75,32,3,10.29,AU,1713667142
356,aden,12.7794,45.0367,28.73,81,100,6.36,YE,1713667156
357,moab,38.5733,-109.5498,21.03,19,90,3.31,US,1713667156
358,midvagur,62.0511,-7.1939,7.46,100,100,2.57,FO,1713667157
359,el calafate,-50.3408,-72.2768,3.22,64,12,4.56,AR,1713667157
360,zarechnyy,53.2036,45.1923,13.74,61,100,4.92,RU,1713667157
361,saint-philippe,-21.3585,55.7679,22.84,72,100,1.31,RE,1713667158
362,dzhangala,49.2167,50.3333,19.19,51,0,5.33,KZ,1713667159
363,tindouf,27.6711,-8.1474,15.25,63,30,10.29,DZ,1713667159
364,gebeit,21.0667,36.3167,21.91,32,2,1.63,SD,1713667159
365,laguna de perlas,12.3429,-83.6712,26.96,73,100,3.94,NI,1713667160
366,juruti,-2.1522,-56.0922,24.03,93,100,1.46,BR,1713667160
367,majuro,7.0897,171.3803,28.98,79,100,0.0,MH,1713667160
368,nemuro,43.3236,145.575,3.24,89,100,5.48,JP,1713666903
369,jakobstad,63.6749,22.7026,-3.37,85,100,3.66,FI,1713667161
370,saldanha,-33.0117,17.9442,11.03,77,100,1.84,ZA,1713667161
371,nittendorf,49.0253,11.9611,4.3,87,100,0.45,DE,1713667161
372,kudat,6.8837,116.8477,30.96,74,20,2.06,MY,1713667161
373,sogndal,61.2283,7.1003,-0.79,80,11,0.0,NO,1713667162
374,dange,12.8513,5.3471,30.94,29,16,3.15,NG,1713667162
375,melfort,52.8667,-104.6177,3.07,56,6,3.6,CA,1713667162
376,anaconda,46.1285,-112.9423,8.55,69,5,1.12,US,1713667162
377,taltal,-25.4,-70.4833,17.44,86,43,0.45,CL,1713667162
378,santa cruz,-17.8,-63.1667,24.7,88,13,2.06,BO,1713667163
379,prince george,53.9166,-122.753,15.69,17,0,5.14,CA,1713666952
380,klaksvik,62.2266,-6.589,7.51,95,100,5.24,FO,1713667164
381,kruisfontein,-34.0033,24.7314,17.71,91,100,1.99,ZA,1713667166
382,san pedro,14.35,121.0167,32.95,59,20,4.12,PH,1713667167
383,la libertad,-2.2333,-80.9,23.82,82,62,4.04,EC,1713667167
384,swift current,50.2834,-107.8014,3.45,60,0,3.6,CA,1713667167
385,tuy hoa,13.0833,109.3,33.15,55,25,2.9,VN,1713666874
386,taupo,-38.6833,176.0833,15.29,84,65,1.48,NZ,1713667168
387,ust-nera,64.5667,143.2,-1.01,86,64,1.61,RU,1713667168
388,akjoujt,19.6969,-14.4164,25.49,21,84,5.37,MR,1713667168
389,celestun,20.8667,-90.4,25.8,82,0,6.71,MX,1713667168
390,veinticinco de mayo,-35.4323,-60.1727,19.43,89,100,1.85,AR,1713667169
391,north vernon,39.0062,-85.6236,7.38,62,97,2.83,US,1713667169
392,portland,45.5234,-122.6762,13.33,65,69,3.58,US,1713667148
393,itapecuru mirim,-3.3925,-44.3586,23.74,99,100,1.96,BR,1713667169
394,kiunga,-6.1219,141.2906,32.48,63,91,0.85,PG,1713667169
395,horta,38.5333,-28.6333,16.12,94,91,1.79,PT,1713667170
396,isla aguada,18.7833,-91.4667,29.02,80,22,7.49,MX,1713667170
397,vila do maio,15.1333,-23.2167,22.44,82,99,7.06,CV,1713667170
398,spas-klepiki,55.1347,40.1767,6.63,73,97,4.1,RU,1713667170
399,juan griego,11.0817,-63.9655,26.33,87,18,4.67,VE,1713667171
400,sudzha,51.1976,35.2726,10.76,66,100,8.76,RU,1713667171
401,tarawa,1.419,172.984,31.05,74,40,3.09,KI,1713667171
402,selfoss,63.9331,-20.9971,5.58,68,97,8.72,IS,1713667171
403,talara,-4.5772,-81.2719,21.42,85,49,3.91,PE,1713667172
404,bathurst,-33.4166,149.5806,19.42,62,0,2.13,AU,1713666817
405,nouadhibou,20.931,-17.0347,18.43,86,99,10.22,MR,1713667173
406,happy valley-goose bay,53.3168,-60.3315,4.17,75,75,10.29,CA,1713667173
407,tazovsky,67.4667,78.7,-18.08,92,100,0.94,RU,1713667173
408,lagunas,-5.2269,-75.6753,23.63,97,98,1.26,PE,1713667174
409,el granada,37.5027,-122.4694,18.9,61,0,10.8,US,1713667174
410,itamaraca,-7.7478,-34.8256,24.03,86,90,3.23,BR,1713667174
411,kolonia,50.9333,6.95,4.98,83,40,2.57,DE,1713667082
412,iskateley,67.6803,53.1512,-9.99,93,100,9.39,RU,1713667175
413,beyneu,45.3167,55.2,23.0,38,90,6.56,KZ,1713667175
414,tolanaro,-25.0319,46.9987,22.04,88,20,1.03,MG,1713666922
415,kolyshley,52.7005,44.5367,11.12,67,100,7.78,RU,1713667176
416,angra do heroismo,38.65,-27.2167,18.34,96,20,2.24,PT,1713667176
417,berezovo,63.9381,65.0419,-3.12,91,61,3.17,RU,1713667176
418,vernon,50.2581,-119.2691,18.34,21,72,2.06,CA,1713667176
419,nawanshahr,31.1167,76.1333,23.75,32,28,3.41,IN,1713667177
420,uturoa,-16.7333,-151.4333,28.45,76,57,7.06,PF,1713667177
421,long beach,33.767,-118.1892,19.53,81,0,7.2,US,1713667177
422,thunder bay,48.4001,-89.3168,3.99,41,40,4.12,CA,1713667061
423,new amsterdam,6.25,-57.5167,26.21,78,100,3.13,GY,1713667177
424,alexandria,31.2156,29.9553,15.3,70,2,2.89,EG,1713666814
425,shingu,33.7333,135.9833,17.51,96,100,0.87,JP,1713667178
426,shiguai,40.7058,110.2856,15.39,29,16,5.16,CN,1713667178
427,anupgarh,29.1911,73.2086,28.19,31,0,2.54,IN,1713667179
428,mount pearl,47.5166,-52.7813,-0.48,89,75,4.63,CA,1713667179
429,kirensk,57.7853,108.1119,4.98,82,100,1.34,RU,1713667179
430,kayangel,8.0823,134.7173,28.71,80,47,6.9,PW,1713667179
431,kievka,50.2619,71.5514,15.4,49,0,4.13,KZ,1713667180
432,petukhovo,55.0692,67.9019,18.73,61,10,3.7,RU,1713667180
433,eraan,9.0629,117.7016,33.45,50,94,1.11,PH,1713667180
434,yefremov,53.1481,38.0992,8.64,67,100,8.9,RU,1713667180
435,kamiiso,41.8167,140.65,16.21,44,40,7.72,JP,1713667181
436,ts'nori,41.6209,45.9694,16.02,78,44,1.12,GE,1713667181
437,coquimbo,-29.9533,-71.3436,15.85,82,100,0.51,CL,1713667181
438,urangan,-25.3,152.9,22.89,92,99,1.79,AU,1713667182
439,karratha,-20.7377,116.8463,29.98,18,0,8.48,AU,1713667182
440,pedernales,18.0384,-71.744,26.34,77,35,1.68,DO,1713667182
441,andergrove,-21.0833,149.1833,25.91,74,90,8.61,AU,1713667183
442,linqiong,30.4159,103.4609,21.9,56,75,1.26,CN,1713667183
443,sinabang,2.4803,96.3801,27.35,79,99,1.08,ID,1713667183
444,port-gentil,-0.7193,8.7815,28.07,83,100,4.86,GA,1713667183
445,anadyr,64.75,177.4833,-6.72,85,100,12.0,RU,1713667184
446,ocumare del tuy,10.1165,-66.7761,28.11,98,97,1.14,VE,1713667184
447,prado,-17.3411,-39.2208,23.54,91,82,4.11,BR,1713667184
448,phanom thuan,14.1303,99.6986,35.0,39,83,4.59,TH,1713667184
449,lankow,53.6498,11.3691,2.03,77,7,2.59,DE,1713667185
450,constitucion,-35.3333,-72.4167,13.7,60,99,1.88,CL,1713667185
451,medicine hat,50.0501,-110.6683,8.55,33,0,4.63,CA,1713667185
452,saudarkrokur,65.7461,-19.6394,4.93,95,100,3.82,IS,1713667185
453,colonia,50.9333,6.95,4.98,83,40,2.57,DE,1713667082
454,vodnyy,63.5046,53.4095,-0.33,88,15,4.96,RU,1713667186
455,tulagi,-9.0996,160.1476,28.86,73,44,3.06,SB,1713667186
456,oodweyne,9.4092,45.064,22.38,74,100,1.53,SO,1713667186
457,ta`u,-14.2336,-169.5144,28.79,77,35,6.98,AS,1713667187
458,palmer,42.1584,-72.3287,7.78,46,0,3.6,US,1713667187
459,sorong,-0.8833,131.25,28.28,83,12,2.58,ID,1713667188
460,benguela,-12.5763,13.4055,26.34,81,79,1.64,AO,1713667188
461,hounde,11.5,-3.5167,33.05,35,100,6.93,BF,1713667188
462,banyo,6.75,11.8167,20.01,94,100,0.71,CM,1713667189
463,chincha alta,-13.4099,-76.1323,20.33,85,58,0.2,PE,1713667189
464,laojunmiao,39.8333,97.7333,14.52,17,1,8.72,CN,1713667189
465,gwanda,-20.9333,29.0,17.02,59,0,1.71,ZW,1713667189
466,middleburg,30.0689,-81.8604,25.57,68,79,1.34,US,1713667190
467,gadzhiyevo,69.2551,33.3362,-5.04,68,100,6.62,RU,1713667190
468,elliot,-31.3333,27.85,14.49,58,56,3.1,ZA,1713667190
469,east london,-33.0153,27.9116,21.52,92,100,3.83,ZA,1713667190
470,ambovombe,-25.1667,46.0833,21.0,88,66,2.19,MG,1713667190
471,itaituba,-4.2761,-55.9836,24.19,97,100,0.68,BR,1713667191
472,neiafu,-18.65,-173.9833,29.38,74,40,4.12,TO,1713667191
473,mount isa,-20.7333,139.5,23.87,33,3,6.69,AU,1713667191
474,dadukou,26.5479,101.7054,20.53,66,93,2.58,CN,1713667191
475,tidjikja,18.5564,-11.4271,27.64,13,70,4.69,MR,1713667192
476,salinopolis,-0.6136,-47.3561,25.93,89,100,2.62,BR,1713667192
477,emirgazi,37.9022,33.8372,7.88,80,1,0.94,TR,1713667192
478,berezovyy,51.6667,135.7,2.45,89,97,1.3,RU,1713667192
479,sao vicente,-23.9631,-46.3919,22.1,26,41,1.22,BR,1713667193
480,milan,45.4643,9.1895,8.9,55,0,0.51,IT,1713666980
481,jaragua,-15.7569,-49.3344,23.16,77,87,0.65,BR,1713667193
482,berdigestyakh,62.0989,126.6992,1.05,100,100,4.29,RU,1713667193
483,meadow lake,34.8014,-106.5436,17.97,40,30,6.09,US,1713667194
484,kargasok,59.0556,80.8572,-1.69,49,100,3.13,RU,1713667194
485,qui nhon,13.7667,109.2333,30.64,67,9,6.06,VN,1713666674
486,rawlins,41.7911,-107.2387,4.08,38,0,4.63,US,1713667194
487,albacete,38.8333,-2.0,11.21,81,0,2.06,ES,1713667195
488,sterling,39.0062,-77.4286,16.44,34,75,8.23,US,1713667195
489,mitsamiouli,-11.3847,43.2844,28.0,76,98,3.66,KM,1713667195
490,bealanana,-14.55,48.7333,17.36,98,100,0.95,MG,1713667195
491,abu jibeha,11.4562,31.2285,28.59,15,100,3.23,SD,1713667196
492,olyokminsk,60.3736,120.4264,6.68,66,25,5.59,RU,1713667196
493,nagqu,31.5,92.0,4.11,22,81,6.98,CN,1713667196
494,zaozersk,69.4005,32.4476,-6.17,74,100,4.62,RU,1713667196
495,buka,40.8108,69.1986,20.4,58,97,3.72,UZ,1713667197
496,dwarka,22.2394,68.9678,26.87,63,100,5.65,IN,1713667197
497,turochak,52.2576,87.1224,8.61,59,46,0.43,RU,1713667197
498,vilhena,-12.7406,-60.1458,21.62,97,100,0.47,BR,1713667197
499,marquard,-28.6645,27.4305,13.75,63,0,1.12,ZA,1713667198
500,joanopolis,-22.9303,-46.2756,15.03,98,23,1.32,BR,1713667198
501,bamboo flat,11.7,92.7167,31.05,70,20,1.54,IN,1713667198
502,kerikeri,-35.2268,173.9474,20.51,70,51,4.86,NZ,1713667198
503,mavrodin,44.0333,25.25,6.78,75,92,1.15,RO,1713667199
504,yanykurgan,43.915,67.2481,21.79,31,86,6.5,KZ,1713667200
505,preobrazheniye,42.9019,133.9064,9.1,79,98,1.2,RU,1713667200
506,lodwar,3.1191,35.5973,28.5,61,100,2.23,KE,1713667200
507,mendoza,-32.8908,-68.8272,18.74,59,0,2.06,AR,1713667200
508,cannonvale,-20.2833,148.7,22.66,71,79,8.56,AU,1713667201
509,marsh harbour,26.5412,-77.0636,23.44,72,0,4.83,BS,1713667201
510,nikolayevsk-on-amure,53.1406,140.73,-0.44,92,100,2.24,RU,1713667202
511,yako,12.9667,-2.2667,32.86,12,48,1.78,BF,1713667202
512,urzhar,47.093,81.6294,17.04,31,0,2.05,KZ,1713667202
513,sisimiut,66.9395,-53.6735,-3.19,73,100,6.11,GL,1713667203
514,esfarayen,37.0765,57.5101,6.81,33,23,2.03,IR,1713667203
515,columbia,34.0007,-81.0348,26.71,59,0,2.06,US,1713667203
516,camana,-16.6228,-72.7111,21.38,81,30,2.24,PE,1713667203
517,edgewater,28.9889,-80.9023,26.08,86,20,2.57,US,1713667204
518,clinton,42.587,-82.9199,6.61,51,100,3.6,US,1713667204
519,puerto san jose,13.9256,-90.8244,27.78,75,79,1.75,GT,1713667204
520,kiffa,16.6166,-11.4045,31.38,10,15,4.16,MR,1713667204
521,contamana,-7.3333,-75.0167,24.21,92,96,0.83,PE,1713667205
522,masterton,-40.9597,175.6575,14.5,80,79,1.46,NZ,1713667205
523,pionerskiy,54.9508,20.2275,2.91,72,100,7.16,RU,1713667205
524,puerto lleras,3.0223,-73.4044,22.71,96,100,0.77,CO,1713667205
525,viedma,-40.8135,-62.9967,11.53,52,75,1.75,AR,1713667206
526,acarau,-2.8856,-40.12,24.79,93,100,4.39,BR,1713667206
527,nova olinda do norte,-3.8881,-59.0942,24.29,98,100,0.44,BR,1713667206
528,ayame,5.6083,-3.1563,25.55,93,91,1.34,CI,1713667206
529,usinsk,65.9939,57.5281,1.15,98,100,8.49,RU,1713667206
530,stephenville,32.2207,-98.2023,10.08,93,100,6.69,US,1713667207
531,luderitz,-26.6481,15.1594,18.94,53,4,2.44,NA,1713667207
532,sortavala,61.7053,30.6918,-7.77,97,84,0.89,RU,1713667207
533,yalihuyuk,37.3008,32.0855,5.99,87,2,0.57,TR,1713667208
534,aswan,24.0934,32.907,22.61,18,0,1.54,EG,1713667089
535,porto novo,6.4965,2.6036,29.9,83,45,4.27,BJ,1713667209
536,gorontalo,0.5412,123.0595,32.85,56,98,1.66,ID,1713667209
537,saint-nicolas-de-port,48.6309,6.3004,5.18,87,100,3.09,FR,1713667209
538,lubango,-14.9172,13.4925,16.38,58,0,0.85,AO,1713667210
539,vanino,49.0869,140.2543,4.96,82,100,2.42,RU,1713667210
540,inhambane,-23.865,35.3833,20.83,82,0,0.87,MZ,1713667210
541,peace river,56.2501,-117.286,15.17,10,0,5.66,CA,1713667211
542,ha'il,27.5219,41.6907,24.01,22,0,6.17,SA,1713667211
543,yigo village,13.5361,144.8886,32.62,61,20,8.23,GU,1713667211
544,kattivakkam,13.2167,80.3167,31.05,72,61,6.17,IN,1713667211
545,partur,19.6,76.2167,32.42,25,26,5.09,IN,1713667212
546,beawar,26.1,74.3167,27.67,32,100,5.81,IN,1713667205
547,lodja,-3.4833,23.4333,20.87,99,100,0.79,CD,1713667212
548,genhe,50.7833,121.5167,9.34,38,75,2.34,CN,1713667212
549,bayt al faqih,14.5164,43.3245,28.64,75,100,2.23,YE,1713667213
550,wuhai,39.6647,106.8122,20.18,24,66,9.84,CN,1713667161
551,minot air force base,48.4209,-101.3391,6.1,42,0,4.12,US,1713667214
552,choibalsan,48.0667,114.5,12.12,36,100,8.35,MN,1713667215
553,ambon,-3.6954,128.1814,32.08,62,40,1.54,ID,1713667215
554,moyynkum,44.2914,72.9469,14.22,34,0,10.82,KZ,1713667215
555,tefe,-3.3542,-64.7114,23.88,97,100,0.66,BR,1713667215
556,kiruna,67.8557,20.2251,-17.49,78,75,1.54,SE,1713667215
557,chimbarongo,-34.7,-71.05,11.49,54,100,0.81,CL,1713667216
558,nabire,-3.3667,135.4833,30.09,67,59,2.46,ID,1713667216
559,carangola,-20.7331,-42.0294,18.36,95,89,1.06,BR,1713667216
560,samitah,16.596,42.9444,28.93,71,96,1.5,SA,1713667216
561,naze,28.3667,129.4833,25.51,88,99,7.0,JP,1713667217
562,box elder,41.5005,-112.8764,12.99,47,21,3.96,US,1713667217
563,antofagasta,-23.65,-70.4,18.6,81,11,1.27,CL,1713667131
564,isla cristina,37.2,-7.3167,15.21,85,100,1.38,ES,1713667136
565,fort st. john,56.2499,-120.8529,12.94,18,20,5.14,CA,1713667218
566,taber,49.8167,-112.1518,9.0,27,0,6.69,CA,1713667218
567,dudhi,24.2167,83.25,36.29,13,87,5.31,IN,1713667219
568,trumbull,41.3167,-80.7665,6.31,48,100,2.06,US,1713667219
569,salalah,17.0151,54.0924,27.05,83,40,1.54,OM,1713667219
570,san pedro de macoris,18.4616,-69.2972,25.07,83,0,4.11,DO,1713667219
571,nuuk,64.1835,-51.7216,0.34,74,100,16.46,GL,1713667220
572,kamina,-8.7386,24.9906,17.67,96,81,1.47,CD,1713667220
573,werneck,49.9833,10.1,3.21,83,100,1.61,DE,1713667220
574,katsuren-haebaru,26.3369,127.8719,29.21,73,20,7.2,JP,1713667220
575,sanpetru mare,46.05,20.6667,4.56,82,73,4.78,RO,1713667220
576,huillapima,-28.7253,-65.9787,23.64,61,3,0.83,AR,1713667221
577,n'zeto,-7.2312,12.8666,26.51,93,100,3.04,AO,1713667221
578,kapit,2.0167,112.9333,25.1,99,100,0.78,MY,1713667221
579,anloga,5.7947,0.8973,28.6,84,91,6.77,GH,1713667119
580,ghat,24.9647,10.1728,26.9,10,86,4.11,LY,1713667222
581,las tablas,7.7667,-80.2833,26.21,99,61,1.49,PA,1713667222
582,louisville,38.2542,-85.7594,11.01,48,0,4.63,US,1713666915
583,puerto baquerizo moreno,-0.9,-89.6,24.91,84,95,0.69,EC,1713667223
584,kupino,54.3663,77.2981,12.98,53,11,5.15,RU,1713667223
